{
"type": "FeatureCollection",
"name": "petiteEnfance",
"crs": { "type": "name", "properties": { "name": "urn:ogc:def:crs:OGC:1.3:CRS84" } },
"features": [
{ "type": "Feature", "properties": { "nom": "Delphine SERIS", "adresse": "3 Les Bazinières 72500 Jupilles", "telephone": "\n06 40 06 59 90", "mail": "\nbabou038@hotmail.com", "ficheCAF": "https://monenfant.fr/que-recherchez-vous/mode-d-accueil/assistant-maternel/jupilles/c2bfd094-b379-454a-97f7-f544ab1689ef", "type": "Assistant maternel" }, "geometry": { "type": "Point", "coordinates": [ 0.427933350568259, 47.793985576411941 ] } },
{ "type": "Feature", "properties": { "nom": "Eulalie BOUTTIER", "adresse": "12 rue André Albert 72150 Saint-Vincent-du-Lorouër", "telephone": "06 30 41 30 50", "mail": null, "ficheCAF": "https://monenfant.fr/que-recherchez-vous/mode-d-accueil/assistant-maternel/st-vincent-du-lorouer/927bf31d-3827-4c52-af7b-bb2a08728e00", "type": "Assistant maternel" }, "geometry": { "type": "Point", "coordinates": [ 0.488545460561863, 47.823905015428487 ] } },
{ "type": "Feature", "properties": { "nom": "Véronique MOULLE", "adresse": "202 impasse Virlivois 72150 Saint-Vincent-du-Lorouër", "telephone": "06 78 50 28 29", "mail": "legeay.jeanclaude@wanadoo.fr", "ficheCAF": "https://monenfant.fr/que-recherchez-vous/mode-d-accueil/assistant-maternel/st-vincent-du-lorouer/e2593a60-9fde-4ba9-be73-5a0873f715e4", "type": "Assistant maternel" }, "geometry": { "type": "Point", "coordinates": [ 0.510526223028729, 47.829087024861259 ] } },
{ "type": "Feature", "properties": { "nom": "Alexandre BOULAY", "adresse": "2080 route de la Bulassière 72150 Le Grand-Lucé", "telephone": "06 71 15 36 21", "mail": "alexboulay72@gmail.com", "ficheCAF": "https://monenfant.fr/que-recherchez-vous/mode-d-accueil/assistant-maternel/le-grand-luce/2707fd2e-677b-4c33-bfcc-6c9e28a2f75b", "type": "Assistant maternel" }, "geometry": { "type": "Point", "coordinates": [ 0.45506318624838, 47.848515526681169 ] } },
{ "type": "Feature", "properties": { "nom": "Christelle SIREUDE", "adresse": "207 impasse des Blanchardières 72150 Le Grand-Lucé", "telephone": "06 47 95 06 11", "mail": null, "ficheCAF": "https://monenfant.fr/que-recherchez-vous/mode-d-accueil/assistant-maternel/le-grand-luce/22086448-bcc0-4534-a7df-c81412a33e19NULL", "type": "Assistant maternel" }, "geometry": { "type": "Point", "coordinates": [ 0.475748889305907, 47.857740961157489 ] } },
{ "type": "Feature", "properties": { "nom": "Stéphanie TOILLIEZ", "adresse": "17 rue du Pont de l'Arche 72150 Pruillé-l'Eguillé", "telephone": "06 11 88 47 60", "mail": "nanimalo72@gmail.com", "ficheCAF": "https://monenfant.fr/que-recherchez-vous/mode-d-accueil/assistant-maternel/pruille-l-eguille/3504a0bb-99e5-4859-bf4d-ce46d34bdc73", "type": "Assistant maternel" }, "geometry": { "type": "Point", "coordinates": [ 0.43289380712335, 47.838399773966231 ] } },
{ "type": "Feature", "properties": { "nom": "Sandrine RONCIERE", "adresse": "3 résidence des Coëmonts 72150 Pruillé-l'Eguillé", "telephone": "06 18 55 01 14", "mail": "sandrine.ronciere@gmail.com", "ficheCAF": "https://monenfant.fr/que-recherchez-vous/mode-d-accueil/assistant-maternel/pruille-l-eguille/3504a0bb-99e5-4859-bf4d-ce46d34bdc73", "type": "Assistant maternel" }, "geometry": { "type": "Point", "coordinates": [ 0.432726404164771, 47.838765678807363 ] } },
{ "type": "Feature", "properties": { "nom": "Christine BOUDARD", "adresse": "7 Les Terres Blanches 72150 Villaines-sous-Lucé", "telephone": "06 78 82 09 71", "mail": "boudard.christine@orange.fr", "ficheCAF": "https://monenfant.fr/que-recherchez-vous/mode-d-accueil/assistant-maternel/villaines-sous-luce/c8ec7b24-5535-4005-9d4c-4ed20e1a472b", "type": "Assistant maternel" }, "geometry": { "type": "Point", "coordinates": [ 0.481632251336959, 47.86311264072404 ] } },
{ "type": "Feature", "properties": { "nom": "Christine DORCAS", "adresse": "24 route de la Borde 72150 Pruillé-l'Eguillé", "telephone": "09 88 19 13 36", "mail": null, "ficheCAF": "https://monenfant.fr/que-recherchez-vous/mode-d-accueil/assistant-maternel/pruille-l-eguille/4a2dc144-a2e0-4ba5-8f00-fbce40f0ae95", "type": "Assistant maternel" }, "geometry": { "type": "Point", "coordinates": [ 0.473431596780619, 47.856801549081119 ] } },
{ "type": "Feature", "properties": { "nom": "Christopher BEUFRERE", "adresse": "72150 Le Grand-Lucé", "telephone": "06 25 74 19 15", "mail": "christopherbeaufrere@gmail.com", "ficheCAF": "https://monenfant.fr/que-recherchez-vous/mode-d-accueil/assistant-maternel/le-grand-luce/22ddfd3c-cd1b-4a25-96d2-0b378cd93503", "type": "Assistant maternel" }, "geometry": { "type": "Point", "coordinates": [ 0.46884445524944, 47.865166647117491 ] } },
{ "type": "Feature", "properties": { "nom": "Nelly LEGEAY", "adresse": "72150 Le Grand-Lucé", "telephone": "06 17 21 70 72", "mail": null, "ficheCAF": "https://monenfant.fr/que-recherchez-vous/mode-d-accueil/assistant-maternel/le-grand-luce/61e4f342-f7f1-48fa-8a92-5beab184afe6", "type": "Assistant maternel" }, "geometry": { "type": "Point", "coordinates": [ 0.468870156990552, 47.865155151968217 ] } },
{ "type": "Feature", "properties": { "nom": "Mélanie TIRONNEAU", "adresse": "72150 Villaines-sous-Lucé", "telephone": "06 47 88 92 57", "mail": null, "ficheCAF": "https://monenfant.fr/que-recherchez-vous/mode-d-accueil/assistant-maternel/villaines-sous-luce/0b7c2cd0-6d58-4861-baa6-434c88722adc", "type": "Assistant maternel" }, "geometry": { "type": "Point", "coordinates": [ 0.483006114602429, 47.865856351408326 ] } },
{ "type": "Feature", "properties": { "nom": "Eugénie LEMAITRE", "adresse": "72150 Saint-Vincent-du-Lorouër", "telephone": "06 58 53 99 63", "mail": "e.lemaitree@gmail.com", "ficheCAF": "http://monenfant.fr/que-recherchez-vous/mode-d-accueil/assistant-maternel/st-vincent-du-lorouer/74038533-5b31-4012-8cd3-1133e1947214", "type": "Assistant maternel" }, "geometry": { "type": "Point", "coordinates": [ 0.489234503198692, 47.824900758083416 ] } },
{ "type": "Feature", "properties": { "nom": "Catherine MARTIN", "adresse": "2 rue de la Croix Chignard 72340 Chahaignes", "telephone": "02 43 46 06 22", "mail": "rosecatherine943@gmail.com", "ficheCAF": "https://monenfant.fr/que-recherchez-vous/mode-d-accueil/assistant-maternel/chahaignes/aa4121d2-ffef-431c-81bc-6368b0c6a898", "type": "Assistant maternel" }, "geometry": { "type": "Point", "coordinates": [ 0.50821230763531, 47.742000072715136 ] } },
{ "type": "Feature", "properties": { "nom": "Rebecca ETOILE", "adresse": "20 rue du Val de Loir 72340 Lhomme", "telephone": "06 24 05 08 80", "mail": "rebeccaetoile9@gmail.com", "ficheCAF": "https://monenfant.fr/que-recherchez-vous/mode-d-accueil/assistant-maternel/lhomme/a2e3a81f-1433-4a0f-bb95-fe299bc32fa4", "type": "Assistant maternel" }, "geometry": { "type": "Point", "coordinates": [ 0.557360368854954, 47.742604665527736 ] } },
{ "type": "Feature", "properties": { "nom": "Florence LOISSIN", "adresse": "12 rue Ronsard 72340 Lhomme", "telephone": "06 21 27 77 45", "mail": "florence.loissin@gmail.com", "ficheCAF": "https://monenfant.fr/que-recherchez-vous/mode-d-accueil/assistant-maternel/lhomme/d7f3405d-c63e-432b-a307-482675e2df02", "type": "Assistant maternel" }, "geometry": { "type": "Point", "coordinates": [ 0.560565258253486, 47.742272368118236 ] } },
{ "type": "Feature", "properties": { "nom": "Sabrina GENDRON", "adresse": "8 rue de l'Amitié 72340 Lhomme", "telephone": null, "mail": "gendronsabrina@orange.fr", "ficheCAF": "https://monenfant.fr/que-recherchez-vous/mode-d-accueil/assistant-maternel/lhomme/fa667278-63e0-4afe-9930-ef0660baeeaf", "type": "Assistant maternel" }, "geometry": { "type": "Point", "coordinates": [ 0.558925395327123, 47.746907342157272 ] } },
{ "type": "Feature", "properties": { "nom": "Dominique BESNARDEAU", "adresse": "9 route de la Chartre 72340 Lhomme", "telephone": "02 43 79 07 09", "mail": "dominique.besnardeau@wanadoo.fr", "ficheCAF": "https://monenfant.fr/que-recherchez-vous/mode-d-accueil/assistant-maternel/lhomme/22e24999-86f7-43d1-924c-5ea07ba13c4d", "type": "Assistant maternel" }, "geometry": { "type": "Point", "coordinates": [ 0.560098296459114, 47.745539529503517 ] } },
{ "type": "Feature", "properties": { "nom": "Justine FRESNAIS", "adresse": "5 route du Chemin Enchanté 72340 Lhomme", "telephone": "06 42 24 18 62", "mail": "fresnais.jousse@orange.fr", "ficheCAF": "https://monenfant.fr/que-recherchez-vous/mode-d-accueil/assistant-maternel/lhomme/85e845bb-7ee1-413a-be50-b696862d57bb", "type": "Assistant maternel" }, "geometry": { "type": "Point", "coordinates": [ 0.559293803804342, 47.75572874267273 ] } },
{ "type": "Feature", "properties": { "nom": "Lydie BINARD", "adresse": "15 Lotissment La Croix Caseau 72340 Marçon", "telephone": "06 69 52 22 58", "mail": "lydiebinard@gmail.com", "ficheCAF": "https://monenfant.fr/que-recherchez-vous/mode-d-accueil/assistant-maternel/marcon/0702b49c-8165-46c0-9043-92f630a32c55", "type": "Assistant maternel" }, "geometry": { "type": "Point", "coordinates": [ 0.506117837006072, 47.704690532896507 ] } },
{ "type": "Feature", "properties": { "nom": "Marie-Stéphanie GAULIN", "adresse": "7 Lotissement La Croix Caseau 72340 Marçon", "telephone": "07 69 65 05 13", "mail": "ms.gaulin974@gmail.com", "ficheCAF": "https://monenfant.fr/que-recherchez-vous/mode-d-accueil/assistant-maternel/marcon/d8dc8ef2-9199-4fd2-bfe9-0777a5cd49e2", "type": "Assistant maternel" }, "geometry": { "type": "Point", "coordinates": [ 0.505241941981306, 47.70427160077999 ] } },
{ "type": "Feature", "properties": { "nom": "Clémence PAGÉ", "adresse": "72340 Lhomme", "telephone": "07 88 23 64 25", "mail": null, "ficheCAF": "https://monenfant.fr/que-recherchez-vous/mode-d-accueil/assistant-maternel/lhomme/35a38246-2049-4078-b1bf-80e7aabb31f7", "type": "Assistant maternel" }, "geometry": { "type": "Point", "coordinates": [ 0.557638398397803, 47.743924935386147 ] } },
{ "type": "Feature", "properties": { "nom": "Clémence WEBER", "adresse": "27 Lotissement La Croix Caseau 72340 Marçon", "telephone": null, "mail": "clemence.wgendron@icloud.com", "ficheCAF": "https://monenfant.fr/que-recherchez-vous/mode-d-accueil/assistant-maternel/marcon/ad81bde1-0fe5-4803-b898-7384414471f0", "type": "Assistant maternel" }, "geometry": { "type": "Point", "coordinates": [ 0.504024231416803, 47.704264810144409 ] } },
{ "type": "Feature", "properties": { "nom": "Nelly DODIER", "adresse": "1 La Sablonnière 72500 Jupilles", "telephone": "06 65 63 55 11", "mail": "nelly.dodier@gmail.com", "ficheCAF": "https://monenfant.fr/que-recherchez-vous/mode-d-accueil/assistant-maternel/jupilles/7a2039f4-4d66-4659-b600-a289bc0cd4fc", "type": "Assistant maternel" }, "geometry": { "type": "Point", "coordinates": [ 0.409554968029783, 47.787454088239734 ] } },
{ "type": "Feature", "properties": { "nom": "Vriginie BROSSET", "adresse": "17 rue Nationale 72340 La Chartre-sur-le-Loir", "telephone": "06 50 29 65 94", "mail": "virginiebrosset72@gmail.com", "ficheCAF": "https://monenfant.fr/que-recherchez-vous/mode-d-accueil/assistant-maternel/la-chartre-sur-le-loir/7615c401-3467-402a-81e8-1883b31ef37d", "type": "Assistant maternel" }, "geometry": { "type": "Point", "coordinates": [ 0.574373188396261, 47.728184003134722 ] } },
{ "type": "Feature", "properties": { "nom": "Monique DELEPINE", "adresse": "2 allée du Coteau 72500 Flée", "telephone": "06 06 44 48 64", "mail": null, "ficheCAF": "https://monenfant.fr/que-recherchez-vous/mode-d-accueil/assistant-maternel/flee/02675574-ffd9-4c1a-9053-a587a3adb5cd", "type": "Assistant maternel" }, "geometry": { "type": "Point", "coordinates": [ 0.452323434811216, 47.731444003384901 ] } },
{ "type": "Feature", "properties": { "nom": "Kline LIEGEY", "adresse": "5 Le Béchie 72150 Saint-Georges-de-la-Couée", "telephone": "06 47 59 89 82", "mail": null, "ficheCAF": "https://monenfant.fr/que-recherchez-vous/mode-d-accueil/assistant-maternel/st-georges-de-la-couee/d747c60a-b304-47bd-a596-825d4e7088fd", "type": "Assistant maternel" }, "geometry": { "type": "Point", "coordinates": [ 0.600378014998152, 47.82629041336132 ] } },
{ "type": "Feature", "properties": { "nom": "Alicia ESTEVAO", "adresse": "487 chemin de la Grande Houdinière 72500 Montval-sur-Loir", "telephone": "07 80 54 62 39", "mail": "\nalicia.assmat72@gmail.com", "ficheCAF": "https://monenfant.fr/que-recherchez-vous/mode-d-accueil/assistant-maternel/montval-sur-loir/f1c9adf1-b3d4-4210-9457-f31426095cac", "type": "Assistant maternel" }, "geometry": { "type": "Point", "coordinates": [ 0.440732058018694, 47.705070202995273 ] } },
{ "type": "Feature", "properties": { "nom": "Anne PICHON", "adresse": "14 route des Jouberdières 72500 Montval-sur-Loir", "telephone": "06 79 42 18 38", "mail": "pichon.anne.steph@gmail.com", "ficheCAF": "https://monenfant.fr/que-recherchez-vous/mode-d-accueil/assistant-maternel/montval-sur-loir/cb7064ac-c7c0-4d6f-b718-41a96beeca11", "type": "Assistant maternel" }, "geometry": { "type": "Point", "coordinates": [ 0.459766695566352, 47.697116000751159 ] } },
{ "type": "Feature", "properties": { "nom": "Jessica JAFFRÈS", "adresse": "4 route des Bordes 72500 Montval-sur-Loir", "telephone": "06 51 94 56 09", "mail": "jessica.jaffres@outlook.fr", "ficheCAF": "https://monenfant.fr/que-recherchez-vous/mode-d-accueil/assistant-maternel/montval-sur-loir/87a804be-5211-4481-8dff-ef0219bc768c", "type": "Assistant maternel" }, "geometry": { "type": "Point", "coordinates": [ 0.469172318773829, 47.697469200155631 ] } },
{ "type": "Feature", "properties": { "nom": "Sabrina CAVAGNON", "adresse": "32 route de la Martinière 72500 Montval-sur-Loir", "telephone": "07 70 32 27 42", "mail": "s.cavagnon@orange.fr", "ficheCAF": "https://monenfant.fr/que-recherchez-vous/mode-d-accueil/assistant-maternel/montval-sur-loir/cdbe4973-e897-4fa5-a17f-f783494649b2", "type": "Assistant maternel" }, "geometry": { "type": "Point", "coordinates": [ 0.441720565188784, 47.69290360025682 ] } },
{ "type": "Feature", "properties": { "nom": "Sylvie DELANOUE", "adresse": "5 chemin du Couvent 72500 Luceau", "telephone": "06 10 30 50 04", "mail": null, "ficheCAF": "https://monenfant.fr/que-recherchez-vous/mode-d-accueil/assistant-maternel/luceau/ed45802d-debd-46c9-921b-39d9a96c31ff", "type": "Assistant maternel" }, "geometry": { "type": "Point", "coordinates": [ 0.398628420471036, 47.714948200423791 ] } },
{ "type": "Feature", "properties": { "nom": "Laëtitia SAMSON", "adresse": "20 rue des Mêles 72500 Luceau", "telephone": "06 71 62 71 23", "mail": null, "ficheCAF": "https://monenfant.fr/que-recherchez-vous/mode-d-accueil/assistant-maternel/luceau/a7606f4f-92a5-4037-93e3-f92d16cb4b13", "type": "Assistant maternel" }, "geometry": { "type": "Point", "coordinates": [ 0.402119202736442, 47.709631806504348 ] } },
{ "type": "Feature", "properties": { "nom": "Catherine SMITH", "adresse": "17 rue Gabriel Heurteloup 72500 Montval-sur-Loir", "telephone": "02 43 44 14 60", "mail": "cathsmith@laposte.net", "ficheCAF": "https://monenfant.fr/que-recherchez-vous/mode-d-accueil/assistant-maternel/montval-sur-loir/ea6c4d2f-88c8-4b20-8cb5-ff4d476f1eba", "type": "Assistant maternel" }, "geometry": { "type": "Point", "coordinates": [ 0.423050565188784, 47.695810801172122 ] } },
{ "type": "Feature", "properties": { "nom": "Agnès MENAGER", "adresse": "72500 Montval-sur-Loir", "telephone": "02 43 44 12 45", "mail": null, "ficheCAF": "https://monenfant.fr/que-recherchez-vous/mode-d-accueil/assistant-maternel/montval-sur-loir/cdf46430-fe93-4eb2-a637-44f1b149d304", "type": "Assistant maternel" }, "geometry": { "type": "Point", "coordinates": [ 0.421067202736442, 47.696196002042733 ] } },
{ "type": "Feature", "properties": { "nom": "Barbara GUYON", "adresse": "Le Loup Pendu 72500 Luceau", "telephone": "06 28 73 90 96", "mail": "baba072@hotmail.fr", "ficheCAF": "https://monenfant.fr/que-recherchez-vous/mode-d-accueil/assistant-maternel/luceau/ef2daa06-47e7-4bdc-a3b7-8b350a1e2fae", "type": "Assistant maternel" }, "geometry": { "type": "Point", "coordinates": [ 0.388823565188784, 47.734232792083453 ] } },
{ "type": "Feature", "properties": { "nom": "Linda ROGER", "adresse": "42 avenue Du Mans, Bâtiment C , apt 21, 72500 Montval-sur-Loir", "telephone": "06 58 29 54 56", "mail": "lindaeva.roger@gmail.com", "ficheCAF": "https://monenfant.fr/que-recherchez-vous/mode-d-accueil/assistant-maternel/montval-sur-loir/69d64356-e2b5-452e-84fa-2a3c9e3876dd", "type": "Assistant maternel" }, "geometry": { "type": "Point", "coordinates": [ 0.411067174056081, 47.700936005223937 ] } },
{ "type": "Feature", "properties": { "nom": "Ophélie DEGAILLE", "adresse": "18 route de la Martinière 72500 Montval-sur-Loir", "telephone": "06 38 16 15 10", "mail": "ophelie.dgl60@gmail.com", "ficheCAF": "https://monenfant.fr/que-recherchez-vous/mode-d-accueil/assistant-maternel/montval-sur-loir/1a1bcd28-3448-4438-81ed-6c6bf569fbb0", "type": "Assistant maternel" }, "geometry": { "type": "Point", "coordinates": [ 0.443148565188784, 47.690298800411171 ] } },
{ "type": "Feature", "properties": { "nom": "Laura VERITE", "adresse": "1 rue Roger Georges 72500 Lavernat", "telephone": "06 40 06 37 27", "mail": null, "ficheCAF": "https://monenfant.fr/que-recherchez-vous/mode-d-accueil/assistant-maternel/lavernat/7e50df24-a4d6-4c9c-946e-a12b60df51ec", "type": "Assistant maternel" }, "geometry": { "type": "Point", "coordinates": [ 0.333314565188784, 47.717452993067958 ] } },
{ "type": "Feature", "properties": { "nom": "Pauline GIRARD", "adresse": "33 route des Tuileries 72500 Luceau", "telephone": "07 86 97 44 52", "mail": "pauline.girard13@orange.fr", "ficheCAF": "https://monenfant.fr/que-recherchez-vous/mode-d-accueil/assistant-maternel/luceau/555c8429-7409-48f2-b486-275545dd8ae7", "type": "Assistant maternel" }, "geometry": { "type": "Point", "coordinates": [ 0.385318593869145, 47.706658399110275 ] } },
{ "type": "Feature", "properties": { "nom": "Katty LEPROUT DUBOIS", "adresse": "2 bis chemin de Poitron 72500 Luceau", "telephone": "06 23 96 03 95", "mail": "katty999@hotmail.fr", "ficheCAF": "https://monenfant.fr/que-recherchez-vous/mode-d-accueil/assistant-maternel/luceau/abefd61e-2d6e-4350-a04f-ef74c30a577b", "type": "Assistant maternel" }, "geometry": { "type": "Point", "coordinates": [ 0.386890695566352, 47.706418001464705 ] } },
{ "type": "Feature", "properties": { "nom": "Ludivine VINOT", "adresse": "31 route de Tours 72340 La Chartre-sur-le-Loir", "telephone": "06 21 55 45 02", "mail": "vinot.ludivine@gmail.com", "ficheCAF": "https://monenfant.fr/que-recherchez-vous/mode-d-accueil/assistant-maternel/la-chartre-sur-le-loir/4312b755-0f6b-4820-8540-e4ffaeace45b", "type": "Assistant maternel" }, "geometry": { "type": "Point", "coordinates": [ 0.583584724246713, 47.724479799429943 ] } },
{ "type": "Feature", "properties": { "nom": "Aurelia DOMINGUEZ", "adresse": "10 rue de la Guimperie 72340 Loir-en-Vallée", "telephone": null, "mail": "aureliadu72@hotmail.fr", "ficheCAF": "https://monenfant.fr/que-recherchez-vous/mode-d-accueil/assistant-maternel/loir-en-vallee/6e5f026b-e14b-4c45-8cec-68710fe7359b", "type": "Assistant maternel" }, "geometry": { "type": "Point", "coordinates": [ 0.612305449151397, 47.74566119194381 ] } },
{ "type": "Feature", "properties": { "nom": "Cendrine LE BARBENCHON", "adresse": "32 rue André Pineau 72340 Loir-en-Vallée", "telephone": "07 50 05 21 94", "mail": "cendrinelebarbenchon86@gmail.com", "ficheCAF": "https://monenfant.fr/que-recherchez-vous/mode-d-accueil/assistant-maternel/loir-en-vallee/b6d02c1f-23e6-4dda-9cb1-ba9519c7da29", "type": "Assistant maternel" }, "geometry": { "type": "Point", "coordinates": [ 0.617453059334636, 47.745548968736237 ] } },
{ "type": "Feature", "properties": { "nom": "Sylvie MARTINEAU", "adresse": "2 rue des Rossignols 72340 Loir-en-Vallée", "telephone": null, "mail": "sylvie-franck72@hotmail.fr", "ficheCAF": "https://monenfant.fr/que-recherchez-vous/mode-d-accueil/assistant-maternel/loir-en-vallee/d7302e72-094b-42e6-accf-7bf00f3007d2", "type": "Assistant maternel" }, "geometry": { "type": "Point", "coordinates": [ 0.618048202736442, 47.74711720091755 ] } },
{ "type": "Feature", "properties": { "nom": "Mélanie LEROY", "adresse": "28 rue du Grand Douai 7250 Montval-sur-Loir", "telephone": "06 63 85 82 98", "mail": "melanie.leroy@akeonet.com", "ficheCAF": "https://monenfant.fr/que-recherchez-vous/mode-d-accueil/assistant-maternel/montval-sur-loir/b08a12db-73c3-4c5a-9e76-647cb796388a", "type": "Assistant maternel" }, "geometry": { "type": "Point", "coordinates": [ 0.414551072358874, 47.692749599417731 ] } },
{ "type": "Feature", "properties": { "nom": "Audrey FAGE", "adresse": "12 allée de Bretagne 72500 Montval-sur-Loir", "telephone": "06 48 55 21 01", "mail": null, "ficheCAF": "https://monenfant.fr/que-recherchez-vous/mode-d-accueil/assistant-maternel/montval-sur-loir/57c48ef5-70c5-4770-b77e-daab04cdb9ad", "type": "Assistant maternel" }, "geometry": { "type": "Point", "coordinates": [ 0.413273202736442, 47.690823800483642 ] } },
{ "type": "Feature", "properties": { "nom": "Christine HERIN", "adresse": "8 allée du Maine 72500 Montval-sur-Loir", "telephone": "06 82 76 55 86", "mail": "chriskate@orange.fr", "ficheCAF": "https://monenfant.fr/que-recherchez-vous/mode-d-accueil/assistant-maternel/montval-sur-loir/1df11b78-8157-43cf-9c85-722c5837a45a", "type": "Assistant maternel" }, "geometry": { "type": "Point", "coordinates": [ 0.413911072358874, 47.690507001224432 ] } },
{ "type": "Feature", "properties": { "nom": "Nadège REFFAY", "adresse": "50 route des Fontaines 72500 Montval-sur-Loir", "telephone": "06 85 14 57 52", "mail": "nadegereffay@hotmail.fr", "ficheCAF": "https://monenfant.fr/que-recherchez-vous/mode-d-accueil/assistant-maternel/montval-sur-loir/30ed1c8c-8449-48a0-933e-1c187e3417f7", "type": "Assistant maternel" }, "geometry": { "type": "Point", "coordinates": [ 0.409461318773829, 47.683948000259029 ] } },
{ "type": "Feature", "properties": { "nom": "Marie-Louise PFEFFER", "adresse": "12 allée des Roses 72500 Montval-sur-Loir", "telephone": "02 43 46 97 72", "mail": "malouclassen@gmail.com", "ficheCAF": "https://monenfant.fr/que-recherchez-vous/mode-d-accueil/assistant-maternel/montval-sur-loir/3545351d-a741-4aa6-ad67-99fed5622176", "type": "Assistant maternel" }, "geometry": { "type": "Point", "coordinates": [ 0.425001188396261, 47.688746000109219 ] } },
{ "type": "Feature", "properties": { "nom": "Nathalie RICHARD", "adresse": "7 Les Fausses Gaudes 72500 Montval-sur-Loir", "telephone": "06 21 89 09 97", "mail": null, "ficheCAF": "https://monenfant.fr/que-recherchez-vous/mode-d-accueil/assistant-maternel/montval-sur-loir/a220d2ba-377a-41c7-b844-55ba83036f5d", "type": "Assistant maternel" }, "geometry": { "type": "Point", "coordinates": [ 0.388534060722425, 47.682549000958062 ] } },
{ "type": "Feature", "properties": { "nom": "Delphine TAILLARD", "adresse": "5 route de Nogent 72500 Montval-sur-Loir", "telephone": "07 64 05 66 90", "mail": "d.taillard@laposte.net", "ficheCAF": "https://monenfant.fr/que-recherchez-vous/mode-d-accueil/assistant-maternel/montval-sur-loir/24034a15-e383-4e10-bb34-78b678624ec4", "type": "Assistant maternel" }, "geometry": { "type": "Point", "coordinates": [ 0.414046825943919, 47.683480398999642 ] } },
{ "type": "Feature", "properties": { "nom": "Marie-Pierre CARIOU", "adresse": "92 route de Nogent 72500 Montval-sur-Loir", "telephone": null, "mail": "mpjp.cariou@orange.fr", "ficheCAF": "https://monenfant.fr/que-recherchez-vous/mode-d-accueil/assistant-maternel/montval-sur-loir/e24323bc-970e-4b92-b224-2645f9742ea4", "type": "Assistant maternel" }, "geometry": { "type": "Point", "coordinates": [ 0.408205449151397, 47.678177400420893 ] } },
{ "type": "Feature", "properties": { "nom": "Catherine PINCON", "adresse": "11 rue Basse 72500 Montval-sur-Loir", "telephone": "06 11 76 33 85", "mail": "catherine.assez@wanadoo.fr", "ficheCAF": "https://monenfant.fr/que-recherchez-vous/mode-d-accueil/assistant-maternel/montval-sur-loir/8d18ef80-477f-4778-81f0-086f62b190a0", "type": "Assistant maternel" }, "geometry": { "type": "Point", "coordinates": [ 0.439142956321487, 47.684694600282583 ] } },
{ "type": "Feature", "properties": { "nom": "Jean-Louis IDOUX", "adresse": "9 rue de la Vallée du Bourgneuf 72340 Beaumont-sur-Dême", "telephone": "06 45 07 09 99", "mail": "jean-louis.idoux@orange.fr", "ficheCAF": "https://monenfant.fr/que-recherchez-vous/mode-d-accueil/assistant-maternel/beaumont-sur-deme/ba2292f8-72ad-4a14-b589-764ab413c9f0", "type": "Assistant maternel" }, "geometry": { "type": "Point", "coordinates": [ 0.571331318773829, 47.692626200895376 ] } },
{ "type": "Feature", "properties": { "nom": "Marie-Charlotte MENARD", "adresse": "15 rue Sainte Geneviève 72500 Dissay-sous-Courcillon", "telephone": "06 36 14 87 07", "mail": "mariecharlottemenard@gmail.com", "ficheCAF": "https://monenfant.fr/que-recherchez-vous/mode-d-accueil/assistant-maternel/dissay-sous-courcillon/418be18b-a1ac-4df3-a75b-f2062fd090f4", "type": "Assistant maternel" }, "geometry": { "type": "Point", "coordinates": [ 0.475180072358874, 47.663138001854591 ] } },
{ "type": "Feature", "properties": { "nom": "Claire MARTIN", "adresse": "1 avenue de Tours 72500 Dissay-sous-Courcillon", "telephone": "06 75 87 03 92", "mail": "morel.martin@orange.fr", "ficheCAF": "https://monenfant.fr/que-recherchez-vous/mode-d-accueil/assistant-maternel/dissay-sous-courcillon/b408087e-fbfd-471c-99ce-2716f8f78727", "type": "Assistant maternel" }, "geometry": { "type": "Point", "coordinates": [ 0.472470449151397, 47.664522199650335 ] } },
{ "type": "Feature", "properties": { "nom": "Stéphanie VERDUN CHANTEPIE", "adresse": "5 ruelle de la Bouvaterie 72500 Dissay-sous-Courcillon", "telephone": "06 79 67 19 30", "mail": "s.verdun@free.fr", "ficheCAF": "https://monenfant.fr/que-recherchez-vous/mode-d-accueil/assistant-maternel/dissay-sous-courcillon/73a7c01f-2285-452c-89e1-138e66f9d63a", "type": "Assistant maternel" }, "geometry": { "type": "Point", "coordinates": [ 0.468512956321487, 47.664472598948777 ] } },
{ "type": "Feature", "properties": { "nom": "Carine FRESNEAU", "adresse": "18 bis rue de la Bouvaterie 72500 Dissay-sous-Courcillon", "telephone": "07 50 38 87 28", "mail": "roca.fresneau@hotmail.fr", "ficheCAF": "https://monenfant.fr/que-recherchez-vous/mode-d-accueil/assistant-maternel/dissay-sous-courcillon/82f731e5-794d-4c47-b5dd-0f144b7f654c", "type": "Assistant maternel" }, "geometry": { "type": "Point", "coordinates": [ 0.463698058018694, 47.664615425454016 ] } },
{ "type": "Feature", "properties": { "nom": "Anne-Marie LAURENT", "adresse": "1 impasse de la Rotte 72500 Saint-Pierre-de-Chevillé", "telephone": "02 43 44 59 39", "mail": null, "ficheCAF": "https://monenfant.fr/que-recherchez-vous/mode-d-accueil/assistant-maternel/st-pierre-de-cheville/6b0f67a3-d317-4ab5-b275-0e758cd628d1", "type": "Assistant maternel" }, "geometry": { "type": "Point", "coordinates": [ 0.438445811603739, 47.647012187022625 ] } },
{ "type": "Feature", "properties": { "nom": "Nelly FERIAU", "adresse": "72500 Saint-Pierre-de-Chevillé", "telephone": "06 38 69 14 62", "mail": "nelly.feriau@hotmail.fr", "ficheCAF": "https://monenfant.fr/que-recherchez-vous/mode-d-accueil/assistant-maternel/st-pierre-de-cheville/d869a339-b0ba-4205-93e3-f888c2047fa1", "type": "Assistant maternel" }, "geometry": { "type": "Point", "coordinates": [ 0.439487529387964, 47.64617888954163 ] } },
{ "type": "Feature", "properties": { "nom": "Camille BOURIN", "adresse": "1 Lambal 72500 Saint-Pierre-de-Chevillé", "telephone": "06 47 56 63 89", "mail": null, "ficheCAF": "https://monenfant.fr/que-recherchez-vous/mode-d-accueil/assistant-maternel/st-pierre-de-cheville/0bcd8cac-484f-4478-b38a-66ea619933ec", "type": "Assistant maternel" }, "geometry": { "type": "Point", "coordinates": [ 0.406633593869145, 47.638654966433847 ] } },
{ "type": "Feature", "properties": { "nom": "Carole DEGAILLE", "adresse": "1 rue Jean de la Fontaine 72500 Nogent-sur-Loir", "telephone": "06 74 53 62 75", "mail": "carole.degaille@gmail.com", "ficheCAF": "https://monenfant.fr/que-recherchez-vous/mode-d-accueil/assistant-maternel/nogent-sur-loir/12164059-158d-4707-8d7c-888ec3124fc0", "type": "Assistant maternel" }, "geometry": { "type": "Point", "coordinates": [ 0.394415825943919, 47.655673997573551 ] } },
{ "type": "Feature", "properties": { "nom": "Multi-accueil Les p'tits loirs", "adresse": "2 bis rue du Clos 72340 Loir-en-Valle", "telephone": "09 72 55 37 29", "mail": "microcreche@valduloir.com", "ficheCAF": "https://monenfant.fr/que-recherchez-vous/mode-d-accueil/multi-accueil/loir-en-vallee/multi-accueil-les-ptits-loirs-loir-en-vallee/cd716d11-7a22-4e2c-93d6-f3ec3eb0faea", "type": "Crèche" }, "geometry": { "type": "Point", "coordinates": [ 0.617717835155516, 47.751810759436651 ] } },
{ "type": "Feature", "properties": { "nom": "Micro-crèche Le Grand Douai", "adresse": "2 rue du Québec 72500 Montval-sur-Loir", "telephone": "02 43 44 91 40", "mail": "halt.pom-reinette@orange.fr", "ficheCAF": "https://monenfant.fr/que-recherchez-vous/mode-d-accueil/micro-creche/montval-sur-loir/micro-creche-le-grand-douai/155e5584-6e0e-4f30-a491-40d6fb967e6c", "type": "Crèche" }, "geometry": { "type": "Point", "coordinates": [ 0.415762956321488, 47.693862069404389 ] } },
{ "type": "Feature", "properties": { "nom": "Multi-accueil Pom'Reinette", "adresse": "6 place Clémenceau 72500 Montval-sur-Loir", "telephone": "02 43 44 91 40", "mail": "halt.pom-reinette@orange.fr", "ficheCAF": "https://monenfant.fr/que-recherchez-vous/mode-d-accueil/multi-accueil/montval-sur-loir/multi-accueil-pomreinette-montval-sur-loir/7e8db7d4-985c-4bc9-8b0e-24ce90ae897f", "type": "Crèche" }, "geometry": { "type": "Point", "coordinates": [ 0.416149941981306, 47.695963802520239 ] } },
{ "type": "Feature", "properties": { "nom": "Multi-accueil Les Galipettes", "adresse": "12 rue de Belleville 72150 Le Grand-Lucé", "telephone": "02 43 40 14 26", "mail": "multiaccueil.legrandluce@orange.fr", "ficheCAF": "", "type": "Crèche" }, "geometry": { "type": "Point", "coordinates": [ 0.45974165254581, 47.865000931777871 ] } },
{ "type": "Feature", "properties": { "nom": "RPE CDC Loir-Lucé-Bercé", "adresse": "12 rue de Belleville", "telephone": "02 43 85 69 26", "mail": "rampe.legrandluce@orange.fr", "ficheCAF": "https://monenfant.fr/que-recherchez-vous/lieu-d-accompagnement-et-information-des-familles/rpe/le-grand-luce/rpe-cdc-loir-luce-berce-secteur-luce/81732371-9eda-48d8-9702-3bd23207e2ed", "type": "Relais Petite Enfance" }, "geometry": { "type": "Point", "coordinates": [ 0.459744029338332, 47.865045578932502 ] } },
{ "type": "Feature", "properties": { "nom": "RPE Loir et Bercé", "adresse": "6 place Clémenceau 72500 Montval-sur-Loir", "telephone": "07 80 21 99 30", "mail": "ram.loiretberce@wanadoo.fr", "ficheCAF": "https://monenfant.fr/que-recherchez-vous/RPE%2520LOIR%2520ET%2520BERC%25C3%2589%2520-%2520ESPACE%2520LOIR%2520ET%2520BERC%25C3%2589%252C%2520CS%2520%2520MONTVAL%2520SUR%2520LOIR/RPE/a9246021-a1c0-40cc-b8d5-3fea226cb156?commune=Montval-sur-Loir,%20Sarthe,%20Pays%20de%20la%20Loire,%20FRA&x=0.418583348378&y=47.695452759951", "type": "Relais Petite Enfance" }, "geometry": { "type": "Point", "coordinates": [ 0.416151277681822, 47.695987815133094 ] } },
{ "type": "Feature", "properties": { "nom": "RAMPE Val du Loir", "adresse": "36 rue Gervais Chevallier 72340 La Chartre-sur-le-Loir", "telephone": "02 43 44 40 97", "mail": "rampe.csvdl@gmail.com", "ficheCAF": "https://monenfant.fr/que-recherchez-vous/lieu-d-accompagnement-et-information-des-familles/rpe/la-chartre-sur-le-loir/rampe-val-du-loir-cdc-loir-luce-berce-la-chartre-sur-le-loir/924cd3a0-8581-43ea-9aa0-6c1565da3d39", "type": "Relais Petite Enfance" }, "geometry": { "type": "Point", "coordinates": [ 0.571069797263558, 47.730836334439715 ] } }
]
}
